Counter,Date/Time,OrientPitch,OrientRoll,OrientYaw,MagnetX,MagnetY,MagnetZ,GyroX,GyroY,GyroZ,AccX,AccY,AccZ,Lat,Long
1,2022-05-13 20:11:04.355141,-0.4176,1.0598,0.7599,4.7581,-0.071,3.8864,-0.0013,0.0029,-0.0011,0.0198,0.0407,0.0246,21.4089,134.3679
2,2022-05-13 20:11:09.451237,-0.4166,1.06,0.7459,10.0483,-0.2341,7.7236,-0.0001,0.0029,-0.0002,0.0159,0.042,0.0249,21.1615,134.5819
3,2022-05-13 20:11:14.547309,-0.4161,1.0594,0.7607,12.4215,-0.1518,9.4921,-0.0019,0.0013,-0.0005,0.0193,0.041,0.0268,20.9139,134.795
4,2022-05-13 20:11:19.656843,-0.4133,1.0441,0.7534,13.2546,-0.5625,9.9656,-0.0036,0.0004,0.0018,0.0168,0.0412,0.0246,20.6652,135.008
5,2022-05-13 20:11:24.764560,-0.4134,1.036,0.7442,13.3777,-0.6779,9.946,0.0011,0.0002,-0.0003,0.0178,0.0403,0.0249,20.4164,135.22
6,2022-05-13 20:11:31.155022,-0.4123,1.0369,0.7384,13.4019,-0.5944,10.1035,-0.0008,-0.0007,-0.0003,0.0154,0.041,0.0268,20.1046,135.4843
7,2022-05-13 20:11:36.251034,-0.4136,1.0219,0.7332,13.4794,-0.4198,9.2702,-0.0007,-0.0016,-0.0013,0.0215,0.0405,0.0251,19.8556,135.6943
8,2022-05-13 20:11:41.357773,-0.4105,1.032,0.6996,13.416,-0.436,9.489,-0.0001,0.0003,-0.0,0.0205,0.0422,0.0249,19.6058,135.9039
9,2022-05-13 20:11:46.467818,-0.3997,1.0175,0.7,13.466,-0.527,9.2345,-0.0,-0.0009,-0.0012,0.0181,0.042,0.0259,19.3555,136.113
10,2022-05-13 20:11:51.574894,-0.3916,1.0113,0.6862,13.4873,-0.6933,8.9688,0.0003,0.0,0.0,0.019,0.0407,0.0266,19.1051,136.3213
11,2022-05-13 20:11:57.548352,-0.396,0.9977,0.6907,13.4463,-0.9857,8.4882,0.0016,-0.0003,0.0008,0.0183,0.0427,0.0254,18.8119,136.5639
12,2022-05-13 20:12:02.658010,-0.3939,0.9983,0.6877,13.3182,-0.8746,7.9438,-0.0005,-0.0003,0.0024,0.0181,0.0415,0.0261,18.5607,136.7708
13,2022-05-13 20:12:07.757904,-0.3918,1.004,0.6681,13.3792,-1.1235,8.0177,0.0007,-0.0009,0.0005,0.0161,0.0405,0.0249,18.3097,136.9766
14,2022-05-13 20:12:12.863546,-0.3836,1.0047,0.6559,13.3767,-0.9961,8.1875,0.0028,-0.0012,-0.001,0.0166,0.041,0.0264,18.0582,137.182
15,2022-05-13 20:12:17.970589,-0.383,1.0179,0.6462,13.3978,-0.9089,7.7068,-0.0003,-0.0005,0.0006,0.0139,0.0417,0.0256,17.8063,137.3868
16,2022-05-13 20:12:23.942556,-0.3708,1.0128,0.6255,13.1704,-0.9478,7.4964,-0.0026,-0.0008,0.0015,0.0215,0.0422,0.0271,17.5115,137.6255
17,2022-05-13 20:12:29.038009,-0.3777,1.0169,0.612,13.1912,-1.1039,7.3534,0.0002,-0.0022,-0.0006,0.0159,0.0415,0.0261,17.2596,137.8284
18,2022-05-13 20:12:34.139074,-0.3634,1.0184,0.5991,13.0983,-0.9544,7.0781,0.0017,-0.0016,0.0,0.0188,0.0407,0.0254,17.0072,138.031
19,2022-05-13 20:12:39.233991,-0.3569,1.0285,0.5898,13.3218,-0.8173,6.6519,0.0005,-0.0,0.001,0.0224,0.0417,0.0278,16.7549,138.2328
20,2022-05-13 20:12:44.340547,-0.3549,1.0263,0.5827,13.6521,-0.9461,6.5759,-0.0026,-0.0012,0.0007,0.0181,0.0422,0.0268,16.5018,138.4344
21,2022-05-13 20:12:50.679842,-0.3547,1.0375,0.5496,13.3365,-0.8318,6.5968,0.001,-0.0023,-0.0001,0.0168,0.041,0.029,16.1871,138.6839
22,2022-05-13 20:12:55.773669,-0.3545,1.033,0.5414,13.1264,-0.7306,6.7068,-0.0002,-0.0008,0.0002,0.0159,0.0415,0.0266,15.9341,138.8837
23,2022-05-13 20:13:01.029712,-0.3514,1.0511,0.5407,13.0223,-0.6579,5.6626,-0.0005,-0.0011,-0.0019,0.0207,0.0427,0.0273,15.6727,139.0893
24,2022-05-13 20:13:06.252264,-0.3627,1.0413,0.5339,12.9594,-1.0168,4.9187,0.0001,0.0004,0.0011,0.0229,0.0405,0.0261,15.4128,139.293
25,2022-05-13 20:13:11.478157,-0.359,1.0287,0.5276,13.1274,-0.8963,4.8209,0.0011,-0.0006,0.0011,0.0188,0.0407,0.0259,15.1525,139.4963
26,2022-05-13 20:13:17.896411,-0.3543,1.0274,0.5134,13.0536,-0.9397,4.7884,-0.0014,0.0001,0.0011,0.0139,0.0403,0.0281,14.8325,139.7452
27,2022-05-13 20:13:25.202239,-0.3614,1.0274,0.4841,13.2312,-1.3015,4.8702,0.0017,0.001,0.0008,0.0203,0.041,0.0261,14.4678,140.0276
28,2022-05-13 20:13:30.328081,-0.3731,1.0201,0.4759,13.0247,-1.1301,5.3441,0.0002,-0.0007,0.0001,0.0142,0.0407,0.0288,14.2117,140.2251
29,2022-05-13 20:13:35.454382,-0.3731,1.0092,0.4565,12.9644,-1.1875,4.5179,0.0033,-0.0,0.0016,0.0178,0.0405,0.0232,13.9553,140.4221
30,2022-05-13 20:13:40.581175,-0.3613,1.0142,0.4395,13.042,-1.4222,4.264,0.0026,0.0012,0.0007,0.0195,0.042,0.0256,13.6988,140.6186
31,2022-05-13 20:13:46.519824,-0.3708,1.0058,0.4274,12.7553,-1.4062,3.543,-0.0004,-0.0006,-0.0005,0.0178,0.0415,0.0259,13.4014,140.8457
32,2022-05-13 20:13:51.634218,-0.3655,1.0048,0.4204,12.6985,-1.5513,3.4685,-0.0004,0.0015,0.0002,0.0149,0.0412,0.0244,13.145,141.0408
33,2022-05-13 20:13:56.737688,-0.373,1.0026,0.4099,12.6793,-1.5359,3.017,-0.0024,-0.0044,0.0004,0.0156,0.0407,0.0249,12.889,141.235
34,2022-05-13 20:14:01.816990,-0.3701,1.0031,0.3993,12.5542,-1.5757,2.1236,-0.0003,0.0011,0.001,0.0151,0.0407,0.0254,12.634,141.4279
35,2022-05-13 20:14:06.911370,-0.3714,1.0023,0.3787,12.3881,-1.3642,2.0329,0.0004,-0.0001,0.0013,0.0217,0.0422,0.0264,12.3781,141.6209
36,2022-05-13 20:14:12.853881,-0.3835,0.9884,0.3623,12.3064,-1.5406,2.0352,0.0011,-0.0001,0.0009,0.0161,0.0412,0.0264,12.0794,141.8455
37,2022-05-13 20:14:17.948803,-0.3832,0.9842,0.3477,12.7788,-1.5612,2.2868,-0.0011,-0.0009,0.0006,0.02,0.041,0.0251,11.8232,142.0375
38,2022-05-13 20:14:23.055745,-0.3895,0.9654,0.341,12.5113,-1.7139,1.3316,-0.0004,-0.0003,-0.0013,0.02,0.0427,0.0281,11.5661,142.2297
39,2022-05-13 20:14:28.150183,-0.3891,0.9618,0.3219,12.6849,-1.6912,0.9765,0.0006,-0.0009,0.0005,0.0151,0.0407,0.0254,11.3096,142.4211
40,2022-05-13 20:14:33.257080,-0.3935,0.9687,0.3019,12.7789,-1.6202,0.9711,0.002,-0.0005,0.0005,0.0137,0.04,0.0251,11.0522,142.6124
41,2022-05-13 20:14:39.558560,-0.3964,0.9718,0.2778,12.5676,-1.7899,0.8955,0.0005,-0.0001,-0.0007,0.0146,0.0417,0.0273,10.7345,142.8481
42,2022-05-13 20:14:44.664992,-0.3924,0.9714,0.2665,12.545,-1.862,0.4552,-0.0012,-0.0013,0.0019,0.0156,0.04,0.0244,10.4768,143.0387
43,2022-05-13 20:14:49.768392,-0.3826,0.9674,0.2505,12.7072,-1.721,0.0627,-0.0006,-0.001,-0.0023,0.0154,0.0412,0.0242,10.2192,143.2287
44,2022-05-13 20:14:54.866875,-0.3865,0.9689,0.235,12.8267,-1.7616,0.1694,0.0012,-0.001,-0.0011,0.0203,0.041,0.0242,9.9617,143.4183
45,2022-05-13 20:14:59.967975,-0.3764,0.9842,0.213,12.8804,-2.1862,0.1142,-0.001,-0.0001,0.0002,0.0198,0.0429,0.0249,9.7038,143.6076
46,2022-05-13 20:15:05.852564,-0.3703,0.9938,0.2025,12.5775,-2.2317,-0.546,0.0006,0.0007,-0.0025,0.0203,0.0427,0.0271,9.4063,143.8257
47,2022-05-13 20:15:10.959049,-0.3727,0.9886,0.2007,12.5362,-2.1449,-1.2378,0.0002,0.0007,0.0011,0.0188,0.041,0.0256,9.1479,144.0145
48,2022-05-13 20:15:16.058982,-0.368,0.9894,0.1924,12.2083,-2.0663,-1.1979,0.0047,0.0018,0.0002,0.0193,0.0403,0.0256,8.8898,144.2028
49,2022-05-13 20:15:21.155221,-0.3615,1.0066,0.1719,12.2973,-2.0241,-1.4288,0.0009,-0.0006,-0.0029,0.0156,0.042,0.0271,8.6317,144.3907
50,2022-05-13 20:15:26.260188,-0.3565,1.023,0.1677,12.0782,-1.8834,-1.8054,0.0005,-0.0,-0.001,0.0144,0.0422,0.0249,8.3731,144.5786
51,2022-05-13 20:15:32.191136,-0.353,1.0236,0.1334,12.4029,-2.1554,-2.124,0.0038,-0.0003,-0.0003,0.0137,0.0417,0.0264,8.0725,144.7966
52,2022-05-13 20:15:37.294148,-0.3556,1.0174,0.1288,12.1312,-1.9927,-2.1182,-0.0002,-0.0006,0.0012,0.0181,0.0417,0.0256,7.8138,144.9838
53,2022-05-13 20:15:42.397576,-0.3457,1.0236,0.1139,12.1744,-2.1869,-1.9538,0.002,0.001,-0.0001,0.0224,0.0425,0.0283,7.5549,145.1708
54,2022-05-13 20:15:47.502116,-0.3467,1.0023,0.1084,12.266,-2.1248,-2.379,-0.0022,0.0006,0.0023,0.0203,0.04,0.0261,7.2958,145.3576
55,2022-05-13 20:15:52.607892,-0.3503,0.998,0.0951,12.4012,-2.3157,-3.1886,0.0006,-0.0001,-0.001,0.0217,0.042,0.0261,7.0367,145.5442
56,2022-05-13 20:15:58.522223,-0.3478,0.9991,0.0881,12.5055,-2.511,-3.21,0.0006,-0.0025,-0.002,0.0185,0.0405,0.0288,6.7363,145.76
57,2022-05-13 20:16:03.617612,-0.3508,0.9993,0.0668,12.4946,-2.4476,-3.3741,0.0036,0.0018,-0.0002,0.0222,0.0412,0.0259,6.4774,145.9457
58,2022-05-13 20:16:08.719702,-0.3425,0.9879,0.0539,12.4803,-2.5873,-3.1798,-0.0009,0.0014,0.0001,0.0188,0.042,0.0281,6.2181,146.1315
59,2022-05-13 20:16:13.814724,-0.3454,0.9885,0.0469,12.2421,-2.4252,-3.6189,0.0,-0.0001,-0.0011,0.0171,0.0412,0.0271,5.9592,146.3168
60,2022-05-13 20:16:18.922054,-0.3485,1.0003,0.026,12.1295,-2.488,-3.7605,0.0033,-0.0007,0.0011,0.0146,0.04,0.0249,5.6995,146.5023
61,2022-05-13 20:16:24.805895,-0.3368,1.0121,0.0145,12.2486,-2.6503,-4.0482,0.002,0.0008,0.0015,0.0144,0.0425,0.0256,5.4002,146.7158
62,2022-05-13 20:16:29.901497,-0.3394,1.0201,0.0061,11.9013,-2.5954,-4.4929,-0.0005,0.0007,-0.0015,0.0132,0.04,0.0259,5.1409,146.9006
63,2022-05-13 20:16:35.011518,-0.341,1.0211,-0.0047,12.1947,-2.4032,-4.0828,-0.0017,0.0012,0.0006,0.0149,0.0415,0.0281,4.8808,147.0857
64,2022-05-13 20:16:40.121205,-0.3408,1.019,-0.0126,12.5251,-2.5197,-4.4931,0.0028,-0.0001,-0.0006,0.0137,0.0407,0.0278,4.6208,147.2705
65,2022-05-13 20:16:45.222368,-0.328,1.0194,-0.0114,12.5714,-2.433,-5.1864,0.0021,0.001,-0.0009,0.0166,0.0405,0.0256,4.361,147.455
66,2022-05-13 20:16:50.913987,-0.3259,1.0105,-0.0209,12.6511,-2.6243,-5.1332,0.0027,0.001,0.0009,0.0181,0.0429,0.0268,4.0712,147.6606
67,2022-05-13 20:16:56.018579,-0.3316,0.9942,-0.0443,12.4882,-2.5268,-5.3245,-0.0008,0.0012,0.0002,0.0188,0.0437,0.0281,3.8112,147.8449
68,2022-05-13 20:17:01.123960,-0.3343,0.9989,-0.0539,12.3225,-2.6673,-5.714,0.0016,0.0004,0.0011,0.0134,0.0422,0.0266,3.5511,148.029
69,2022-05-13 20:17:06.230260,-0.3374,0.985,-0.0624,12.5299,-2.7132,-6.188,0.0022,0.0024,-0.001,0.0151,0.0432,0.0256,3.2909,148.2131
70,2022-05-13 20:17:11.323813,-0.3393,0.985,-0.0616,12.4712,-2.8999,-6.2391,0.0024,0.0011,0.002,0.0205,0.04,0.0264,3.0313,148.3966
71,2022-05-13 20:17:17.053464,-0.3375,1.006,-0.0866,12.3881,-2.8637,-6.941,0.0032,0.0002,-0.0007,0.0198,0.0407,0.0261,2.7393,148.6029
72,2022-05-13 20:17:22.161329,-0.346,1.0106,-0.1112,12.1577,-2.995,-7.3827,0.0011,-0.0001,0.0002,0.022,0.0407,0.0256,2.479,148.7867
73,2022-05-13 20:17:27.269096,-0.3588,0.9922,-0.1209,12.4613,-2.728,-7.5073,0.0012,0.002,0.0006,0.0205,0.04,0.0285,2.2185,148.9705
74,2022-05-13 20:17:32.374052,-0.367,1.0096,-0.1423,12.4274,-2.8572,-6.9672,-0.0004,-0.0004,-0.0003,0.0198,0.0403,0.0268,1.9583,149.1541
75,2022-05-13 20:17:37.481027,-0.3564,1.012,-0.1685,12.5644,-3.1461,-7.4891,0.0018,-0.0001,-0.0009,0.0222,0.0415,0.0268,1.6978,149.3376
76,2022-05-13 20:17:43.228283,-0.3655,1.0175,-0.1846,12.3904,-2.2493,-7.9232,-0.0016,-0.0013,-0.0015,0.0144,0.042,0.0249,1.4048,149.5442
77,2022-05-13 20:17:48.330736,-0.3648,1.0093,-0.1979,12.4874,-2.8355,-8.3073,-0.0019,0.0011,-0.0014,0.0176,0.0415,0.0276,1.1445,149.7275
78,2022-05-13 20:17:53.436325,-0.3651,1.0139,-0.2165,12.4685,-2.8889,-8.2181,-0.0001,-0.0013,0.0001,0.0146,0.042,0.0285,0.8842,149.9108
79,2022-05-13 20:17:58.539142,-0.3552,0.9996,-0.2264,12.5774,-3.074,-8.6303,0.0,0.0012,-0.0008,0.0203,0.041,0.0261,0.624,150.094
80,2022-05-13 20:18:03.639804,-0.3643,1.0033,-0.2525,12.5614,-3.2763,-9.1363,-0.0003,0.0012,0.0007,0.0193,0.0407,0.0266,0.3638,150.2772
81,2022-05-13 20:18:09.402959,-0.3659,1.0083,-0.2672,12.3408,-3.1054,-9.5228,0.0001,-0.0007,0.0001,0.0215,0.0393,0.0264,0.0699,150.4841
82,2022-05-13 20:18:14.506711,-0.3626,1.003,-0.2787,12.3226,-3.3183,-9.9646,0.001,0.0002,-0.0011,0.019,0.0425,0.0251,-0.1904,150.6673
83,2022-05-13 20:18:19.606862,-0.364,1.007,-0.287,12.4075,-3.2671,-10.3158,0.0004,-0.0004,0.0016,0.0139,0.0412,0.0254,-0.4505,150.8504
84,2022-05-13 20:18:24.701468,-0.3708,1.0083,-0.2998,12.4697,-3.1754,-10.3849,0.0013,-0.0016,0.0001,0.0173,0.0427,0.0268,-0.7104,151.0333
85,2022-05-13 20:18:29.799545,-0.3726,1.0211,-0.3235,12.2661,-3.1092,-10.4445,0.0001,-0.0002,-0.0002,0.0163,0.0398,0.0229,-0.9703,151.2163
86,2022-05-13 20:18:35.810265,-0.3708,1.0224,-0.3327,12.4453,-3.1101,-10.2832,0.0004,-0.002,-0.0011,0.0161,0.042,0.0266,-1.2768,151.4322
87,2022-05-13 20:18:40.914174,-0.379,1.0275,-0.3483,12.3467,-3.151,-10.518,-0.0011,-0.0005,-0.0005,0.0146,0.0425,0.0259,-1.537,151.6155
88,2022-05-13 20:18:46.021960,-0.3771,1.0187,-0.3671,12.5095,-3.319,-11.2717,-0.0035,-0.0002,0.0016,0.0137,0.0417,0.0264,-1.7974,151.799
89,2022-05-13 20:18:51.120137,-0.3699,1.0142,-0.3742,12.3691,-3.292,-11.3067,-0.0001,-0.0002,-0.0011,0.0166,0.0393,0.0242,-2.0573,151.9823
90,2022-05-13 20:18:56.231740,-0.3738,1.0088,-0.3747,12.4628,-3.3845,-11.5647,0.001,0.0013,-0.0008,0.0161,0.0417,0.0256,-2.3178,152.166
91,2022-05-13 20:19:01.988767,-0.3679,1.0099,-0.38,12.5418,-3.2838,-11.781,-0.0008,-0.002,-0.0013,0.0181,0.0417,0.0264,-2.6112,152.3731
92,2022-05-13 20:19:07.096727,-0.3735,1.0096,-0.3945,12.2742,-3.1153,-11.721,0.0016,-0.001,-0.0022,0.0168,0.0415,0.0261,-2.8715,152.5569
93,2022-05-13 20:19:12.204834,-0.3717,0.999,-0.3936,12.3867,-3.4825,-11.8594,-0.0011,0.0005,0.0002,0.0159,0.0422,0.0244,-3.1317,152.7408
94,2022-05-13 20:19:17.304913,-0.3675,0.9974,-0.397,12.4649,-3.6872,-11.9627,0.0004,-0.001,0.0002,0.0205,0.0407,0.0246,-3.3915,152.9245
95,2022-05-13 20:19:22.415361,-0.3634,1.0041,-0.413,12.6821,-3.7621,-12.0305,0.0001,0.0014,0.0002,0.0188,0.0412,0.0256,-3.6517,153.1087
96,2022-05-13 20:19:28.161544,-0.356,0.9953,-0.4107,12.6635,-4.1309,-12.493,0.0001,-0.0008,-0.0004,0.0146,0.04,0.0276,-3.9443,153.3159
97,2022-05-13 20:19:33.260836,-0.3633,1.0037,-0.426,12.6064,-3.7559,-12.7575,-0.0004,-0.0007,0.0016,0.0134,0.041,0.0268,-4.2039,153.4999
98,2022-05-13 20:19:38.372120,-0.3649,1.0006,-0.427,12.2955,-3.5242,-12.5271,-0.0019,-0.0007,0.0004,0.0149,0.0425,0.0246,-4.464,153.6845
99,2022-05-13 20:19:43.471012,-0.354,1.0043,-0.4253,12.3419,-3.3797,-12.6468,-0.002,-0.0022,0.001,0.0163,0.0405,0.0239,-4.7234,153.8688
100,2022-05-13 20:19:48.581573,-0.3553,0.9972,-0.4424,12.3745,-3.3984,-12.9271,-0.0031,0.0002,-0.0002,0.0146,0.0422,0.0259,-4.9834,154.0537
101,2022-05-13 20:19:54.314525,-0.3492,1.0023,-0.4528,12.1293,-3.4619,-13.662,0.0024,-0.0016,-0.0013,0.0149,0.0415,0.0249,-5.2749,154.2612
102,2022-05-13 20:19:59.422495,-0.3616,1.0016,-0.4631,12.3282,-3.4045,-13.8477,-0.0022,0.0012,0.0002,0.0149,0.0417,0.0281,-5.5345,154.4463
103,2022-05-13 20:20:04.523848,-0.3595,0.9981,-0.4581,12.5979,-3.4687,-13.5076,0.0018,-0.0019,-0.0004,0.0215,0.0405,0.0259,-5.7938,154.6314
104,2022-05-13 20:20:09.631192,-0.3644,1.0068,-0.4691,12.5797,-3.5325,-13.7424,-0.0004,-0.0012,0.0004,0.0183,0.041,0.0268,-6.0532,154.8168
105,2022-05-13 20:20:14.725062,-0.3732,0.999,-0.4756,12.5243,-3.5957,-13.9631,0.0027,0.0022,0.0013,0.0166,0.0429,0.0259,-6.3119,155.002
106,2022-05-13 20:20:20.469696,-0.3847,0.9899,-0.4671,12.4753,-3.4711,-14.254,0.0015,-0.0015,-0.0013,0.019,0.0405,0.0276,-6.6036,155.211
107,2022-05-13 20:20:25.569432,-0.382,0.9994,-0.4717,12.3924,-3.5233,-14.4707,-0.0028,-0.0018,0.0003,0.0205,0.0425,0.0264,-6.8623,155.3968
108,2022-05-13 20:20:30.673309,-0.3829,0.998,-0.4855,12.4055,-3.5953,-15.0878,-0.0018,-0.0024,0.0023,0.0176,0.0422,0.0256,-7.1213,155.583
109,2022-05-13 20:20:35.770949,-0.3831,1.0037,-0.4937,12.6003,-3.9016,-15.1016,-0.0018,-0.0011,-0.0004,0.0146,0.0422,0.0249,-7.3798,155.7691
110,2022-05-13 20:20:40.874438,-0.3876,1.0079,-0.4948,12.7306,-4.0228,-15.3581,0.0001,0.0011,0.0017,0.0178,0.0415,0.0244,-7.6384,155.9558
111,2022-05-13 20:20:46.811607,-0.3801,0.9933,-0.5011,12.7343,-4.0024,-15.761,0.0004,0.002,-0.0008,0.0139,0.0415,0.0251,-7.9392,156.1732
112,2022-05-13 20:20:51.911425,-0.3666,0.9928,-0.5149,12.6981,-3.6524,-15.8117,0.0,0.0005,0.0002,0.0159,0.0403,0.0273,-8.1975,156.3602
113,2022-05-13 20:20:57.020842,-0.378,0.988,-0.5238,12.6178,-3.6448,-15.4897,0.0022,0.0005,-0.0001,0.0139,0.0417,0.0268,-8.4562,156.5479
114,2022-05-13 20:21:02.126466,-0.38,0.9824,-0.5299,12.4814,-3.694,-15.812,0.0004,-0.0018,0.001,0.0217,0.0412,0.0244,-8.7145,156.7356
115,2022-05-13 20:21:07.220984,-0.382,0.9825,-0.5387,12.639,-3.7296,-15.6302,-0.0038,0.0003,0.0014,0.0203,0.0425,0.0281,-8.9721,156.9233
116,2022-05-13 20:21:12.934948,-0.3901,0.9798,-0.5442,12.7107,-3.9761,-16.5078,-0.0018,-0.0006,-0.0005,0.0161,0.0415,0.0259,-9.2609,157.1341
117,2022-05-13 20:21:18.039488,-0.3849,0.9813,-0.5443,12.8704,-4.0379,-16.8491,0.0018,0.0033,-0.0005,0.0205,0.0415,0.0244,-9.5188,157.3227
118,2022-05-13 20:21:23.146712,-0.3847,0.9871,-0.5507,12.9366,-4.2293,-17.3336,0.0006,-0.0015,-0.0005,0.02,0.0407,0.0266,-9.7767,157.5118
119,2022-05-13 20:21:28.253209,-0.3871,0.9935,-0.5597,13.0307,-4.061,-17.4438,-0.0012,0.0002,0.0004,0.019,0.0403,0.0278,-10.0344,157.7012
120,2022-05-13 20:21:33.356862,-0.3844,0.9832,-0.558,13.092,-3.9875,-17.575,0.0006,-0.0004,0.0001,0.0215,0.0403,0.0285,-10.2917,157.8907
121,2022-05-13 20:21:39.068261,-0.3805,0.968,-0.5548,13.1162,-4.081,-17.7536,-0.0015,0.0005,0.0001,0.0161,0.041,0.0259,-10.5796,158.1033
122,2022-05-13 20:21:44.170998,-0.3753,0.9734,-0.5631,13.1258,-4.0783,-17.9599,0.0015,0.002,0.0004,0.02,0.0388,0.0251,-10.8367,158.2935
123,2022-05-13 20:21:49.269445,-0.3815,0.975,-0.5803,13.1469,-3.819,-17.9438,-0.0024,-0.0011,0.0006,0.019,0.042,0.0266,-11.0933,158.484
124,2022-05-13 20:21:54.371067,-0.3775,0.9861,-0.5943,13.0427,-3.9164,-18.2288,0.0021,-0.0001,0.0012,0.0159,0.0417,0.0256,-11.35,158.6749
125,2022-05-13 20:21:59.481990,-0.3741,0.9843,-0.5954,13.115,-3.9424,-18.7928,0.0024,0.0002,-0.0015,0.0159,0.0425,0.0242,-11.607,158.8666
126,2022-05-13 20:22:05.181499,-0.3678,0.9879,-0.6151,13.3383,-3.896,-19.105,0.0006,-0.0022,0.0004,0.0156,0.0417,0.0244,-11.8933,159.0807
127,2022-05-13 20:22:10.277419,-0.3704,0.9952,-0.6192,13.2016,-3.9544,-19.26,0.0009,-0.0015,-0.0006,0.0195,0.041,0.0256,-12.1492,159.2726
128,2022-05-13 20:22:15.387017,-0.3755,1.0043,-0.6351,13.1206,-4.0939,-19.5024,0.0006,-0.0009,0.0004,0.0178,0.041,0.0261,-12.4056,159.4655
129,2022-05-13 20:22:20.497372,-0.3689,1.0064,-0.6335,13.5025,-4.0336,-19.6825,0.0023,-0.0018,-0.0008,0.0176,0.0405,0.0229,-12.6618,159.6588
130,2022-05-13 20:22:25.607083,-0.3692,1.0061,-0.644,13.4946,-3.979,-19.6851,-0.001,0.0007,0.0,0.0156,0.041,0.0264,-12.9178,159.8525
131,2022-05-13 20:22:31.562588,-0.3603,0.9972,-0.6422,13.399,-3.5098,-19.8381,0.0026,-0.0002,0.0012,0.0171,0.042,0.0256,-13.216,160.0787
132,2022-05-13 20:22:36.671887,-0.3612,0.9928,-0.6447,13.5419,-3.781,-20.335,-0.0007,0.0003,0.0012,0.0151,0.0412,0.0266,-13.4715,160.2733
133,2022-05-13 20:22:41.774728,-0.3628,0.9876,-0.6483,13.4832,-3.5572,-20.8773,-0.003,-0.0009,-0.0,0.0217,0.04,0.0259,-13.7267,160.4682
134,2022-05-13 20:22:46.882540,-0.3688,0.995,-0.6504,13.7414,-4.3867,-21.0287,-0.0,0.0001,0.0003,0.0198,0.0415,0.0254,-13.9817,160.6636
135,2022-05-13 20:22:51.989554,-0.3649,0.9941,-0.6574,14.0675,-3.9667,-21.1023,-0.0002,0.0007,-0.0012,0.0171,0.0412,0.0283,-14.2366,160.8596
136,2022-05-13 20:22:57.687650,-0.3561,0.9865,-0.6654,13.712,-3.9921,-21.5218,-0.0029,0.0007,0.0007,0.0207,0.04,0.0288,-14.5207,161.0787
137,2022-05-13 20:23:02.786677,-0.3495,0.9898,-0.6656,13.5503,-4.0374,-21.8233,-0.0008,-0.0002,-0.0008,0.0178,0.042,0.0276,-14.7748,161.2753
138,2022-05-13 20:23:07.897085,-0.3474,0.9924,-0.6686,13.6032,-4.1673,-21.6923,0.0004,-0.002,0.0007,0.0181,0.0407,0.029,-15.0291,161.4729
139,2022-05-13 20:23:12.998991,-0.3495,0.9969,-0.6664,14.0467,-4.07,-22.0008,-0.0002,0.0003,0.0022,0.0156,0.042,0.0261,-15.2829,161.6707
140,2022-05-13 20:23:18.097701,-0.351,1.0114,-0.6626,14.1962,-3.8607,-22.0051,-0.0002,0.0,0.0003,0.0156,0.0403,0.0249,-15.5362,161.8688
141,2022-05-13 20:23:23.804344,-0.341,1.012,-0.6608,14.3429,-3.7891,-22.8485,-0.0002,0.0012,0.0019,0.0146,0.0412,0.0244,-15.8195,162.0913
142,2022-05-13 20:23:28.893645,-0.3333,1.0074,-0.6698,14.3218,-3.5128,-22.8541,0.0013,-0.0012,-0.0014,0.02,0.0407,0.0264,-16.0719,162.2902
143,2022-05-13 20:23:34.000365,-0.3344,1.007,-0.6768,14.4232,-3.5629,-22.6973,0.0001,-0.0003,-0.0005,0.0163,0.0422,0.0285,-16.3249,162.4903
144,2022-05-13 20:23:39.099373,-0.3361,1.0021,-0.6773,14.2687,-3.6481,-23.0267,-0.0019,-0.0021,0.0016,0.0159,0.0422,0.0268,-16.5773,162.6908
145,2022-05-13 20:23:44.206457,-0.3277,1.01,-0.6621,14.304,-3.436,-23.0087,0.0016,-0.0009,-0.0006,0.0144,0.041,0.0251,-16.8298,162.8921
146,2022-05-13 20:23:49.901053,-0.3248,1.0028,-0.6692,14.4495,-3.5729,-23.4391,0.0019,-0.0003,0.0021,0.0178,0.0417,0.0261,-17.1111,163.1172
147,2022-05-13 20:23:55.011831,-0.3188,1.0153,-0.6824,14.5779,-3.4954,-23.4888,0.0018,0.0005,0.0012,0.0163,0.0412,0.0256,-17.3633,163.3199
148,2022-05-13 20:24:00.121804,-0.3179,1.0167,-0.6793,14.6494,-3.6776,-23.9551,0.0009,-0.0001,-0.0007,0.0151,0.0398,0.0266,-17.6151,163.5232
149,2022-05-13 20:24:05.232510,-0.3144,1.0283,-0.6832,14.57,-3.7911,-24.1924,0.0006,0.0017,0.0009,0.0212,0.0405,0.0261,-17.8668,163.7271
150,2022-05-13 20:24:10.339204,-0.3155,1.0324,-0.697,14.6689,-3.7793,-24.265,-0.0006,-0.0035,-0.0016,0.0154,0.042,0.0237,-18.118,163.9315
151,2022-05-13 20:24:16.026468,-0.3148,1.0426,-0.7064,14.7602,-3.8927,-24.45,0.0003,-0.0023,-0.0016,0.0205,0.0425,0.0254,-18.3974,164.1599
152,2022-05-13 20:24:21.121766,-0.3188,1.0541,-0.7209,14.3082,-3.3567,-24.6936,-0.0015,0.0011,-0.0019,0.0146,0.041,0.0234,-18.6474,164.3652
153,2022-05-13 20:24:26.229686,-0.3342,1.039,-0.7352,14.4804,-3.2426,-24.5761,-0.0,-0.0004,-0.0019,0.0149,0.0417,0.0273,-18.8978,164.5717
154,2022-05-13 20:24:31.333483,-0.3292,1.0611,-0.7389,14.3702,-3.3002,-24.6546,-0.0003,0.0002,-0.0016,0.0173,0.041,0.0232,-19.1476,164.7786
155,2022-05-13 20:24:36.439536,-0.3241,1.0535,-0.7432,14.3599,-3.409,-25.2286,-0.0022,-0.002,-0.0003,0.0188,0.042,0.0251,-19.3973,164.9864
156,2022-05-13 20:24:42.134384,-0.3355,1.0502,-0.7519,14.6465,-3.4558,-25.2542,-0.0006,0.0002,0.0015,0.019,0.0405,0.0268,-19.6754,165.2189
157,2022-05-13 20:24:47.244525,-0.3401,1.0458,-0.7664,14.8334,-3.5648,-25.5687,0.0043,-0.002,-0.0025,0.0215,0.0425,0.0259,-19.9246,165.4282
158,2022-05-13 20:24:52.353181,-0.3433,1.0431,-0.7715,15.1771,-3.4903,-25.9349,-0.0015,-0.0014,0.0018,0.0198,0.0417,0.0246,-20.1735,165.6383
159,2022-05-13 20:24:57.455502,-0.3442,1.0294,-0.7783,15.2407,-3.3696,-26.1599,0.0006,0.0002,0.0006,0.0212,0.0405,0.0246,-20.4217,165.8488
160,2022-05-13 20:25:02.553652,-0.3521,1.0314,-0.7841,15.2402,-3.3238,-25.6806,0.003,-0.0007,0.0006,0.0156,0.041,0.0232,-20.6694,166.0598
161,2022-05-13 20:25:08.227594,-0.356,1.0426,-0.7913,15.2105,-3.1277,-25.7867,-0.0,-0.0023,-0.0003,0.0159,0.042,0.0244,-20.9447,166.2957
162,2022-05-13 20:25:13.335421,-0.3523,1.0467,-0.7842,15.2633,-3.1116,-26.8608,-0.0009,0.0002,-0.0003,0.0156,0.042,0.0261,-21.1922,166.5087
163,2022-05-13 20:25:18.435840,-0.358,1.0512,-0.7857,15.3341,-2.8756,-26.9872,0.0012,-0.002,-0.0025,0.0132,0.041,0.0254,-21.4389,166.7222
164,2022-05-13 20:25:23.535771,-0.3619,1.0444,-0.7816,15.718,-2.7859,-26.8457,0.0024,0.0026,-0.0013,0.0195,0.0412,0.0264,-21.6853,166.9365
165,2022-05-13 20:25:28.630828,-0.3489,1.0346,-0.7869,15.7181,-2.882,-26.9276,0.0018,-0.0026,-0.0016,0.0156,0.0412,0.0256,-21.9312,167.1514
166,2022-05-13 20:25:34.291216,-0.3553,1.0447,-0.8012,15.569,-2.8246,-27.7379,0.0006,0.0008,-0.0013,0.0171,0.0407,0.0261,-22.2038,167.391
167,2022-05-13 20:25:39.394954,-0.3583,1.0427,-0.8035,15.6736,-2.9827,-27.9919,-0.0019,0.0017,0.0018,0.0222,0.0412,0.0259,-22.4493,167.608
168,2022-05-13 20:25:44.978113,-0.3592,1.0371,-0.8005,15.8526,-2.7982,-27.8811,0.0009,-0.0004,-0.0003,0.019,0.0415,0.0283,-22.7175,167.8463
169,2022-05-13 20:25:50.082092,-0.3405,1.0312,-0.7929,15.8019,-2.5844,-27.9076,0.0006,0.0008,-0.0016,0.0146,0.0415,0.0273,-22.9622,168.065
170,2022-05-13 20:25:55.318010,-0.3532,1.0182,-0.79,15.7298,-2.4524,-28.2527,-0.0015,-0.0004,0.0006,0.021,0.039,0.0268,-23.2129,168.2903
171,2022-05-13 20:26:01.155588,-0.3473,1.0181,-0.7892,15.8107,-2.4372,-27.9706,-0.0015,0.0026,-0.0009,0.0205,0.0422,0.0268,-23.4919,168.5426
172,2022-05-13 20:26:06.388881,-0.3641,1.0276,-0.8058,16.1059,-2.6325,-28.3575,-0.0012,0.002,-0.0028,0.0146,0.04,0.0251,-23.7415,168.7697
173,2022-05-13 20:26:11.491256,-0.3576,1.0223,-0.8003,15.972,-2.5285,-28.2779,-0.0,0.0011,0.0021,0.0183,0.0422,0.0251,-23.9846,168.992
174,2022-05-13 20:26:16.586763,-0.3531,1.0242,-0.8065,15.9657,-2.8492,-28.4207,0.0009,0.0008,0.0012,0.0156,0.0412,0.0278,-24.2269,169.2149
175,2022-05-13 20:26:24.745518,-0.3591,1.0396,-0.7989,16.1801,-2.7198,-28.4383,0.0006,0.0002,0.0009,0.0161,0.0429,0.0273,-24.6141,169.5739
176,2022-05-13 20:26:30.446600,-0.3489,1.0324,-0.7933,16.1783,-2.6038,-28.865,0.0036,-0.0014,-0.0019,0.0205,0.0415,0.0246,-24.8839,169.826
177,2022-05-13 20:26:35.553749,-0.3488,1.0406,-0.8046,16.5693,-2.5232,-28.821,0.0009,-0.0026,-0.0019,0.0212,0.0405,0.0251,-25.1252,170.0529
178,2022-05-13 20:26:40.660308,-0.3458,1.0391,-0.8057,16.7066,-2.4435,-29.2933,-0.0031,0.0002,-0.0003,0.0181,0.0415,0.0278,-25.3661,170.2809
179,2022-05-13 20:26:45.763309,-0.3479,1.0316,-0.7985,16.7456,-2.5884,-29.4363,-0.0012,0.0023,-0.0006,0.0198,0.041,0.0264,-25.6063,170.5095
180,2022-05-13 20:26:50.870235,-0.355,1.0347,-0.8066,16.6583,-2.6387,-30.2059,0.0003,0.0005,-0.0003,0.022,0.0415,0.022,-25.8464,170.7394
181,2022-05-13 20:26:56.775160,-0.3464,1.0203,-0.8119,16.6216,-2.2937,-30.244,0.0003,0.0002,-0.0016,0.0181,0.0407,0.0254,-26.1233,171.0065
182,2022-05-13 20:27:01.885466,-0.3411,1.0263,-0.82,16.7068,-2.6894,-30.1281,0.0003,0.0005,-0.0016,0.0171,0.042,0.0276,-26.3625,171.2387
183,2022-05-13 20:27:06.996841,-0.3453,1.0161,-0.8143,16.8681,-2.5607,-30.1169,-0.0003,-0.0001,-0.0,0.0151,0.0407,0.0266,-26.6012,171.472
184,2022-05-13 20:27:12.105085,-0.343,1.0192,-0.8137,17.1452,-2.2523,-30.1432,-0.0009,-0.0001,-0.0003,0.0149,0.0422,0.0244,-26.8394,171.7062
185,2022-05-13 20:27:17.204190,-0.3497,1.024,-0.8088,17.2203,-2.143,-30.7993,-0.0003,0.0014,0.0006,0.0183,0.0415,0.0259,-27.0766,171.941
186,2022-05-13 20:27:22.899409,-0.3435,1.029,-0.8162,17.1698,-2.1719,-30.95,0.0009,0.0023,-0.0,0.0215,0.0427,0.0278,-27.3411,172.2046
187,2022-05-13 20:27:28.011387,-0.3426,1.0347,-0.8164,17.2033,-1.8012,-30.936,0.0046,0.002,-0.0022,0.0205,0.0405,0.0251,-27.5779,172.4423
188,2022-05-13 20:27:33.114361,-0.3374,1.0389,-0.8088,17.2342,-1.7139,-30.9859,0.0021,0.0002,-0.0,0.0166,0.0405,0.0266,-27.8138,172.6808
189,2022-05-13 20:27:38.224108,-0.3453,1.0375,-0.8097,17.4561,-1.9227,-31.3616,-0.0006,0.0005,0.0015,0.0181,0.0407,0.0246,-28.0495,172.9206
190,2022-05-13 20:27:43.330656,-0.3372,1.0285,-0.8105,17.6202,-2.2516,-31.3318,0.0027,-0.0004,-0.0009,0.021,0.0422,0.0271,-28.2846,173.1615
191,2022-05-13 20:27:49.028606,-0.3321,1.0393,-0.8094,17.4657,-2.0511,-31.1891,0.0003,-0.0014,0.0009,0.0159,0.0425,0.0249,-28.5462,173.4315
192,2022-05-13 20:27:54.134831,-0.3259,1.0387,-0.8126,17.7384,-1.8632,-31.2349,-0.0006,0.002,0.0009,0.0161,0.0415,0.0249,-28.7802,173.6748
193,2022-05-13 20:27:59.235055,-0.3374,1.0496,-0.8192,17.849,-1.7807,-31.7866,0.0006,0.0002,0.0009,0.0149,0.042,0.0261,-29.0133,173.9189
194,2022-05-13 20:28:04.345462,-0.3307,1.0372,-0.8067,17.9828,-1.5591,-31.6535,-0.0015,-0.0001,-0.0,0.0137,0.0429,0.0256,-29.2464,174.1647
195,2022-05-13 20:28:09.453929,-0.3234,1.0374,-0.8184,18.1116,-1.3553,-31.8374,0.0018,0.0023,-0.0009,0.0154,0.0407,0.0259,-29.4788,174.4116
196,2022-05-13 20:28:15.166509,-0.317,1.0485,-0.8275,18.2247,-1.3594,-32.0261,0.0021,0.0002,-0.0003,0.0207,0.0417,0.0256,-29.738,174.6892
197,2022-05-13 20:28:20.270194,-0.3084,1.0436,-0.8217,18.3596,-1.4543,-32.4054,-0.0012,0.002,-0.0009,0.0166,0.0398,0.0249,-29.969,174.9385
198,2022-05-13 20:28:25.376975,-0.3083,1.0521,-0.8256,18.5714,-1.8587,-32.3074,0.0012,0.0005,-0.0016,0.0181,0.0417,0.0232,-30.1996,175.1892
199,2022-05-13 20:28:30.480073,-0.307,1.0479,-0.8336,18.5182,-1.6651,-32.4683,0.0015,-0.0011,-0.0016,0.0142,0.042,0.0239,-30.4295,175.4409
200,2022-05-13 20:28:35.587758,-0.3143,1.0564,-0.8425,18.3451,-1.1465,-32.5442,0.0006,0.0002,-0.0006,0.0151,0.0395,0.0264,-30.6589,175.6942
201,2022-05-13 20:28:41.276423,-0.3186,1.047,-0.8544,18.5947,-1.2228,-32.229,0.0009,0.0023,-0.0006,0.0205,0.0412,0.0264,-30.9138,175.9778
202,2022-05-13 20:28:46.374757,-0.3286,1.0541,-0.8535,18.7819,-1.0264,-32.4503,-0.0006,0.0017,-0.0019,0.0195,0.0417,0.0239,-31.1416,176.2334
203,2022-05-13 20:28:51.485662,-0.333,1.0576,-0.8607,18.9393,-1.0926,-32.6249,-0.0016,-0.0014,-0.0,0.0173,0.0427,0.0259,-31.3693,176.4908
204,2022-05-13 20:28:56.584534,-0.3307,1.0532,-0.8616,18.9635,-0.8732,-32.8679,-0.0022,0.0014,0.0003,0.0154,0.0417,0.0268,-31.5959,176.749
205,2022-05-13 20:29:01.672752,-0.3375,1.0569,-0.8593,19.2171,-0.6938,-33.0209,-0.0012,-0.0017,0.0012,0.0203,0.041,0.0249,-31.8214,177.0081
206,2022-05-13 20:29:07.370304,-0.3446,1.0599,-0.8608,19.3746,-1.1869,-33.3637,-0.0031,0.0026,-0.0019,0.0154,0.0412,0.0281,-32.0731,177.2997
207,2022-05-13 20:29:12.484876,-0.3399,1.0513,-0.8641,19.7208,-1.2684,-33.2255,-0.0003,-0.0001,0.0015,0.0198,0.0415,0.0266,-32.2984,177.563
208,2022-05-13 20:29:17.583887,-0.3506,1.0365,-0.8707,19.7542,-1.1233,-33.2909,0.0024,-0.0017,-0.0,0.0163,0.0425,0.0254,-32.5223,177.8268
209,2022-05-13 20:29:22.693997,-0.3516,1.0365,-0.8817,19.6806,-0.9087,-33.3835,-0.0,-0.0008,-0.0009,0.0185,0.0432,0.0249,-32.7461,178.0927
210,2022-05-13 20:29:27.793419,-0.3623,1.0323,-0.8644,19.4467,-0.9551,-33.0217,0.0003,-0.0001,0.0009,0.0159,0.0405,0.0234,-32.9687,178.3594
211,2022-05-13 20:29:33.501025,-0.3612,1.0404,-0.862,19.7214,-0.9791,-33.2566,0.0021,-0.0004,-0.0009,0.0163,0.0422,0.0246,-33.2171,178.6597
212,2022-05-13 20:29:38.609994,-0.3622,1.0291,-0.8701,19.6144,-1.0395,-33.1915,-0.0009,0.0005,0.0027,0.0149,0.0417,0.0256,-33.4387,178.9299
213,2022-05-13 20:29:43.707788,-0.3615,1.0272,-0.8621,19.594,-0.7012,-34.1116,0.0006,-0.0008,-0.0003,0.0146,0.0407,0.0237,-33.6591,179.2011
214,2022-05-13 20:29:48.819492,-0.3508,1.0295,-0.8655,19.6976,-0.6017,-34.4691,-0.0006,0.0008,-0.0006,0.0122,0.042,0.0259,-33.8794,179.4744
215,2022-05-13 20:29:53.918930,-0.3543,1.0342,-0.8658,19.9829,-0.633,-34.2279,0.0021,-0.0023,0.0009,0.0185,0.0407,0.0276,-34.0985,179.7487
216,2022-05-13 20:29:59.605089,-0.3573,1.0256,-0.8651,20.111,-0.6265,-34.0738,-0.0003,0.002,-0.0022,0.0173,0.0398,0.0261,-34.3419,-179.9437
217,2022-05-13 20:30:04.716734,-0.3657,1.0116,-0.8519,20.1442,-0.4513,-34.2148,-0.0009,0.0008,-0.0009,0.0173,0.0405,0.0261,-34.5599,-179.6656
218,2022-05-13 20:30:09.833913,-0.3635,1.0047,-0.8552,20.3994,-0.4294,-34.4678,0.0015,0.0005,-0.0,0.019,0.04,0.0268,-34.7774,-179.3856
219,2022-05-13 20:30:14.934115,-0.3512,0.9979,-0.8538,20.5692,-0.2496,-34.5594,0.0012,0.0002,-0.0003,0.0193,0.0405,0.0266,-34.9935,-179.105
220,2022-05-13 20:30:20.043517,-0.3617,0.9977,-0.8617,20.5141,-0.3595,-34.7477,-0.0,0.0005,0.0009,0.021,0.042,0.0264,-35.2092,-178.8222
221,2022-05-13 20:30:25.993246,-0.3592,1.0076,-0.8648,20.6388,-0.7476,-34.4923,-0.0,0.0011,0.0015,0.0156,0.0429,0.0249,-35.4593,-178.491
222,2022-05-13 20:30:31.101644,-0.3549,1.0051,-0.858,20.7934,-0.1489,-35.1542,0.0018,-0.0008,-0.0003,0.0144,0.0417,0.0256,-35.6732,-178.2049
223,2022-05-13 20:30:36.200674,-0.3573,1.0071,-0.8485,21.0523,-0.2301,-34.8446,-0.0019,-0.0008,-0.0,0.0132,0.0415,0.0266,-35.8859,-177.9176
224,2022-05-13 20:30:41.311493,-0.3509,1.0099,-0.8568,21.3622,-0.3193,-34.5233,0.0009,-0.0011,-0.0009,0.0142,0.042,0.0246,-36.0983,-177.6281
225,2022-05-13 20:30:46.411409,-0.3544,1.002,-0.8593,22.1117,-0.5132,-34.3958,-0.0,-0.0014,-0.0006,0.0181,0.0415,0.0273,-36.3095,-177.3375
226,2022-05-13 20:30:52.118794,-0.3569,1.0066,-0.867,21.8083,-0.9056,-34.5629,0.0015,-0.0032,-0.0006,0.0173,0.0417,0.0251,-36.5448,-177.0103
227,2022-05-13 20:30:57.224973,-0.3513,1.0158,-0.8568,22.0493,-0.5953,-34.4585,-0.0003,-0.0001,-0.0,0.0171,0.042,0.0242,-36.7545,-176.7157
228,2022-05-13 20:31:02.327531,-0.3487,1.0105,-0.856,21.9154,-0.4619,-34.3848,-0.0016,-0.0004,0.0009,0.0222,0.041,0.0251,-36.9631,-176.4197
229,2022-05-13 20:31:07.426913,-0.3513,1.0154,-0.8634,21.6382,-0.1967,-34.2649,-0.0006,0.0002,-0.0003,0.0212,0.0412,0.0249,-37.1707,-176.1222
230,2022-05-13 20:31:12.529785,-0.3461,1.0045,-0.8583,21.6961,0.3758,-34.4814,-0.0009,-0.0004,0.0003,0.0137,0.0427,0.0264,-37.3776,-175.8227
231,2022-05-13 20:31:18.198475,-0.3512,1.0026,-0.8499,21.854,0.2751,-35.1007,0.0009,-0.0011,-0.0003,0.0142,0.042,0.0266,-37.6065,-175.4878
232,2022-05-13 20:31:23.294186,-0.3484,1.0029,-0.8437,22.0089,0.3357,-35.3756,-0.0028,0.0002,0.0015,0.022,0.0425,0.0283,-37.8112,-175.1851
233,2022-05-13 20:31:28.401081,-0.3538,1.0107,-0.8608,22.0577,0.2982,-35.328,0.0009,-0.0004,0.0006,0.0205,0.0407,0.0273,-38.0155,-174.8798
234,2022-05-13 20:31:33.496043,-0.3441,0.9998,-0.8592,21.8155,0.3712,-35.4798,-0.0006,-0.0007,-0.0,0.0144,0.0412,0.0242,-38.2183,-174.5735
235,2022-05-13 20:31:38.602896,-0.3485,1.0118,-0.8594,21.7536,0.4485,-35.3009,0.0006,-0.0001,-0.0006,0.0149,0.041,0.0246,-38.4208,-174.2646
236,2022-05-13 20:31:44.324111,-0.3479,1.0334,-0.8524,22.1855,-0.0104,-35.2011,0.0024,-0.0001,-0.0,0.0193,0.0403,0.0222,-38.6464,-173.9164
237,2022-05-13 20:31:49.428864,-0.3347,1.0444,-0.8558,22.2254,0.2283,-34.9419,-0.0016,-0.0004,-0.0006,0.022,0.041,0.0261,-38.8467,-173.6038
238,2022-05-13 20:31:54.591080,-0.3317,1.0405,-0.8512,22.3536,0.1338,-35.0655,0.0009,-0.0017,-0.0009,0.0203,0.0412,0.0259,-39.0483,-173.2857
239,2022-05-13 20:31:59.694894,-0.3364,1.0379,-0.8614,22.6171,0.0846,-35.0246,0.0024,-0.0011,0.0009,0.0205,0.041,0.0266,-39.2467,-172.9693
240,2022-05-13 20:32:04.792362,-0.3414,1.029,-0.8552,22.6871,0.1475,-35.4434,0.0006,-0.0001,-0.0003,0.0161,0.042,0.0271,-39.4438,-172.6514
241,2022-05-13 20:32:10.465154,-0.3428,1.0354,-0.8605,22.6629,0.2581,-35.5213,0.0003,-0.0017,0.0012,0.0151,0.0407,0.0261,-39.6619,-172.2955
242,2022-05-13 20:32:15.565427,-0.3359,1.0324,-0.8516,22.749,0.4335,-35.6022,0.0018,-0.0014,-0.0022,0.0168,0.0405,0.0264,-39.857,-171.9735
243,2022-05-13 20:32:20.660133,-0.335,1.0306,-0.8512,22.8475,0.4054,-36.0159,0.0009,0.0005,-0.0006,0.0178,0.0415,0.0259,-40.0508,-171.6497
244,2022-05-13 20:32:25.767210,-0.3365,1.0229,-0.8502,22.8992,0.3782,-35.564,0.0021,-0.0007,0.0015,0.0207,0.0412,0.0251,-40.244,-171.3234
245,2022-05-13 20:32:30.877090,-0.3476,1.0331,-0.8465,23.1296,0.6344,-35.5217,-0.0003,-0.0007,-0.0,0.0207,0.0425,0.0244,-40.4363,-170.9949
246,2022-05-13 20:32:36.615612,-0.3487,1.0286,-0.8396,23.3307,0.3359,-35.6441,-0.0,0.0017,0.0018,0.0229,0.0415,0.0268,-40.651,-170.6235
247,2022-05-13 20:32:41.714454,-0.3505,1.0097,-0.8401,23.4124,0.6684,-35.5716,0.0015,0.0011,0.0009,0.0203,0.042,0.029,-40.8406,-170.2915
248,2022-05-13 20:32:46.824775,-0.3526,1.0061,-0.8412,23.4446,0.4997,-35.5427,0.0012,0.0011,0.0009,0.0203,0.0415,0.0249,-41.0295,-169.9567
249,2022-05-13 20:32:51.934843,-0.3566,1.0151,-0.8388,23.4614,0.4713,-35.5578,0.0015,-0.0038,0.0009,0.0207,0.0405,0.0276,-41.2173,-169.6199
250,2022-05-13 20:32:57.032669,-0.3542,1.0218,-0.8417,23.3826,0.8847,-35.8437,0.0012,0.0005,0.0012,0.0163,0.0407,0.0273,-41.4036,-169.2818
251,2022-05-13 20:33:02.735187,-0.356,1.0272,-0.853,23.2885,0.7831,-35.5922,0.0033,-0.0001,-0.0009,0.0139,0.042,0.0271,-41.6105,-168.9013
252,2022-05-13 20:33:07.829969,-0.3536,1.0293,-0.8599,23.5906,1.2888,-35.9589,-0.0,-0.0011,0.0003,0.0176,0.0395,0.0259,-41.7942,-168.5591
253,2022-05-13 20:33:12.941862,-0.3602,1.03,-0.8683,23.9145,1.2531,-36.1833,0.0018,0.0002,-0.0012,0.0168,0.0415,0.0254,-41.9773,-168.2138
254,2022-05-13 20:33:18.043587,-0.3628,1.0333,-0.8723,24.0695,1.2381,-36.3648,0.0006,0.002,-0.0003,0.0205,0.042,0.0281,-42.1589,-167.8669
255,2022-05-13 20:33:23.141883,-0.3607,1.0282,-0.8703,24.242,1.4121,-36.516,0.0009,0.002,-0.0006,0.019,0.042,0.0285,-42.3392,-167.5183
256,2022-05-13 20:33:28.881837,-0.3694,1.0342,-0.873,24.4416,1.3987,-36.4378,-0.0003,-0.0011,0.0009,0.0207,0.0422,0.0246,-42.5407,-167.1232
257,2022-05-13 20:33:33.981111,-0.3707,1.0325,-0.8598,24.5225,1.3952,-36.4119,0.0003,0.0023,0.0015,0.0215,0.0427,0.0273,-42.7185,-166.7699
258,2022-05-13 20:33:39.092699,-0.3633,1.0382,-0.8573,24.5661,1.2924,-36.3733,0.0027,-0.0004,-0.0006,0.0205,0.0417,0.0285,-42.8953,-166.4139
259,2022-05-13 20:33:44.194142,-0.3669,1.0487,-0.861,24.5279,1.3158,-36.3202,0.0015,0.0008,-0.0009,0.0154,0.0417,0.0246,-43.0707,-166.0562
260,2022-05-13 20:33:49.292006,-0.3729,1.0393,-0.8609,24.8426,1.3707,-36.6176,0.0003,-0.0001,-0.0009,0.0137,0.042,0.0268,-43.2446,-165.6966
261,2022-05-13 20:33:55.096977,-0.3692,1.0385,-0.865,24.6484,1.3391,-36.5928,-0.0003,0.0026,0.0006,0.021,0.0415,0.0259,-43.4411,-165.2847
262,2022-05-13 20:34:00.192554,-0.3654,1.047,-0.8659,24.7881,1.4097,-36.7297,0.0015,0.0005,0.0006,0.0134,0.0422,0.0259,-43.6122,-164.9206
263,2022-05-13 20:34:05.295203,-0.3583,1.0498,-0.8738,24.9592,1.5911,-36.9212,0.0024,-0.0023,-0.0025,0.0163,0.0405,0.0259,-43.7822,-164.554
264,2022-05-13 20:34:10.395143,-0.3571,1.045,-0.8767,25.0181,1.6977,-36.7739,-0.0003,0.0011,-0.0019,0.0207,0.041,0.0264,-43.9508,-164.1853
265,2022-05-13 20:34:15.500808,-0.3521,1.0634,-0.8746,25.0739,1.6441,-36.4966,0.0021,0.0005,-0.0012,0.0188,0.0403,0.0264,-44.1182,-163.814
266,2022-05-13 20:34:21.179321,-0.3484,1.0647,-0.8718,25.3369,1.5167,-36.5565,-0.0006,0.0011,-0.0016,0.0171,0.0412,0.0229,-44.3028,-163.3985
267,2022-05-13 20:34:26.279505,-0.3385,1.0645,-0.8637,25.6771,1.5959,-36.467,0.0018,-0.0007,-0.0006,0.0203,0.042,0.0232,-44.4672,-163.023
268,2022-05-13 20:34:31.382315,-0.3379,1.0675,-0.8632,25.7367,1.6765,-35.9703,0.0027,0.0011,-0.0006,0.019,0.0429,0.0254,-44.6302,-162.6451
269,2022-05-13 20:34:36.480718,-0.3437,1.0843,-0.866,25.7625,2.0739,-36.364,0.0003,0.0023,0.0012,0.0137,0.0417,0.0254,-44.7918,-162.2652
270,2022-05-13 20:34:41.573044,-0.3393,1.0802,-0.8546,25.6516,1.9308,-36.3613,0.0018,0.0032,0.0003,0.0205,0.0405,0.0249,-44.9517,-161.8836
271,2022-05-13 20:34:47.277934,-0.3369,1.08,-0.8446,25.895,1.9448,-36.7205,0.0027,0.0002,-0.0016,0.0224,0.0412,0.0246,-45.1291,-161.4534
272,2022-05-13 20:34:52.390422,-0.3301,1.0683,-0.851,25.9045,1.9759,-36.7985,0.0021,0.0002,-0.0006,0.02,0.0405,0.0268,-45.2865,-161.0657
273,2022-05-13 20:34:57.489678,-0.3401,1.0786,-0.8608,26.1113,1.9571,-36.6501,0.0024,0.0002,-0.0006,0.0217,0.0403,0.0268,-45.4421,-160.6765
274,2022-05-13 20:35:02.584225,-0.3423,1.0866,-0.8578,26.4418,2.0018,-36.4119,0.003,0.0008,0.0015,0.0144,0.042,0.0256,-45.5961,-160.2855
275,2022-05-13 20:35:07.689760,-0.3551,1.0898,-0.8613,26.5339,1.9579,-36.8285,0.003,-0.0026,0.0012,0.0151,0.04,0.0261,-45.7488,-159.8915
276,2022-05-13 20:35:13.344818,-0.3588,1.082,-0.8789,26.3071,2.8268,-36.8224,-0.0013,-0.0004,0.0009,0.0188,0.0417,0.0249,-45.9163,-159.4524
277,2022-05-13 20:35:18.455727,-0.3662,1.0792,-0.8833,26.5824,3.0631,-36.8738,-0.0006,0.0011,0.0006,0.0176,0.0405,0.0268,-46.066,-159.0532
278,2022-05-13 20:35:23.553531,-0.3642,1.0692,-0.8818,26.4478,2.7329,-36.8492,0.0009,0.0002,0.0015,0.0137,0.0427,0.0276,-46.2138,-158.6527
279,2022-05-13 20:35:28.651837,-0.3665,1.0563,-0.8695,26.3583,2.8365,-36.5778,0.0006,-0.0017,0.0012,0.0224,0.042,0.0278,-46.36,-158.25
280,2022-05-13 20:35:33.759179,-0.3718,1.0521,-0.879,26.5976,2.7639,-36.6992,0.0015,-0.0011,0.0003,0.0207,0.0412,0.0261,-46.5048,-157.8443
281,2022-05-13 20:35:39.491160,-0.3725,1.0283,-0.8623,26.5903,2.9552,-36.1013,-0.0013,-0.0007,-0.0006,0.0203,0.0407,0.0271,-46.6655,-157.3862
282,2022-05-13 20:35:44.590413,-0.3752,1.0421,-0.8551,26.6946,3.0239,-36.4723,0.0039,-0.0001,-0.0009,0.0193,0.041,0.0239,-46.8068,-156.9763
283,2022-05-13 20:35:49.697988,-0.3714,1.0351,-0.8564,27.0146,2.5695,-36.5774,0.0009,-0.0004,0.0012,0.0203,0.0417,0.0244,-46.9466,-156.5636
284,2022-05-13 20:35:54.807074,-0.3821,1.0426,-0.8564,26.9896,2.744,-37.3815,-0.0006,0.0023,-0.0003,0.021,0.0427,0.0254,-47.0848,-156.1485
285,2022-05-13 20:35:59.909074,-0.3901,1.0501,-0.8564,27.2639,3.0632,-36.6314,0.0003,-0.0026,0.0009,0.0168,0.042,0.0237,-47.2212,-155.7317
286,2022-05-13 20:36:05.854079,-0.3935,1.0591,-0.8519,27.4198,3.0896,-36.5535,0.0021,-0.0004,-0.0003,0.0149,0.0407,0.0264,-47.3779,-155.2432
287,2022-05-13 20:36:10.958110,-0.3935,1.0636,-0.8525,27.4723,2.8886,-36.4141,0.0003,0.0005,0.0009,0.0212,0.041,0.0244,-47.5106,-154.8215
288,2022-05-13 20:36:16.055442,-0.3862,1.0692,-0.8505,27.5034,2.9916,-36.7632,0.0033,-0.0014,-0.0022,0.0212,0.041,0.0242,-47.6415,-154.398
289,2022-05-13 20:36:21.164923,-0.3873,1.0711,-0.8443,27.5631,3.0633,-36.3781,0.0015,0.0023,-0.0,0.0215,0.042,0.0259,-47.7709,-153.9713
290,2022-05-13 20:36:26.274706,-0.3842,1.0719,-0.8421,27.4909,3.2405,-36.6228,0.0003,0.0008,0.0003,0.021,0.041,0.0229,-47.8986,-153.5424
291,2022-05-13 20:36:32.171130,-0.3878,1.0643,-0.8336,27.4781,3.4334,-36.5743,0.0027,0.0005,-0.0006,0.0203,0.0417,0.0256,-48.0437,-153.0447
292,2022-05-13 20:36:37.274356,-0.3818,1.0498,-0.8322,27.57,3.7878,-36.8176,0.0021,0.002,-0.0028,0.0154,0.042,0.0259,-48.1673,-152.6118
293,2022-05-13 20:36:42.372260,-0.3843,1.0532,-0.8245,28.1676,3.7086,-36.3812,0.0012,0.0002,-0.0,0.0161,0.0403,0.0244,-48.2891,-152.1769
294,2022-05-13 20:36:47.475541,-0.3876,1.047,-0.8191,28.3008,3.6748,-36.6101,0.0003,-0.0007,0.0003,0.0217,0.0415,0.0254,-48.4091,-151.7396
295,2022-05-13 20:36:52.570303,-0.3754,1.0504,-0.8254,28.2086,3.7425,-36.4466,0.0009,0.0014,0.0012,0.0137,0.0412,0.0254,-48.5271,-151.3008
296,2022-05-13 20:36:58.250140,-0.3735,1.0496,-0.8377,28.3801,3.5171,-36.0725,0.0033,0.0035,0.0012,0.0185,0.042,0.0278,-48.6564,-150.8092
297,2022-05-13 20:37:03.349930,-0.3721,1.0437,-0.8339,28.449,3.944,-36.253,0.0009,0.0005,0.0003,0.0146,0.0407,0.0266,-48.7706,-150.3655
298,2022-05-13 20:37:08.584625,-0.3639,1.0367,-0.8196,28.5464,3.9321,-36.3346,0.0015,0.0023,0.0012,0.019,0.0429,0.0273,-48.8859,-149.9079
299,2022-05-13 20:37:13.812769,-0.3653,1.039,-0.815,28.617,4.0089,-36.1362,-0.0022,0.0002,-0.0022,0.0195,0.0439,0.0281,-48.999,-149.4487
300,2022-05-13 20:37:19.052402,-0.3629,1.0333,-0.8054,28.8659,4.03,-36.1434,0.0012,-0.0023,0.0012,0.0227,0.0417,0.0239,-49.1103,-148.9864
301,2022-05-13 20:37:24.732784,-0.3724,1.0218,-0.7912,28.8402,4.052,-35.8584,0.0006,0.0002,-0.0025,0.0188,0.0403,0.0256,-49.2287,-148.4826
302,2022-05-13 20:37:29.828323,-0.3689,1.0125,-0.7975,28.9452,4.2221,-35.8277,-0.001,0.0011,-0.0016,0.0161,0.0432,0.0266,-49.3328,-148.0288
303,2022-05-13 20:37:34.933349,-0.3625,1.0206,-0.8019,29.0753,4.5127,-35.9044,0.0021,-0.0011,0.0009,0.0171,0.0407,0.0251,-49.4352,-147.572
304,2022-05-13 20:37:40.042499,-0.3662,1.032,-0.8064,29.1317,4.4656,-36.4825,-0.0,-0.0004,-0.0003,0.0185,0.042,0.0237,-49.5357,-147.1128
305,2022-05-13 20:37:45.153125,-0.3684,1.0236,-0.7908,29.1637,4.3336,-36.6796,-0.0003,-0.0014,0.0015,0.02,0.0417,0.0271,-49.6342,-146.6516
306,2022-05-13 20:37:50.859930,-0.3712,1.0179,-0.7887,29.5034,4.1782,-36.2576,0.0006,0.0014,0.0009,0.0205,0.0415,0.0254,-49.7418,-146.1344
307,2022-05-13 20:37:55.967806,-0.358,1.0219,-0.7863,29.591,4.5292,-36.4279,0.0009,0.0023,-0.0,0.0217,0.0407,0.0281,-49.8359,-145.6694
308,2022-05-13 20:38:01.075249,-0.355,1.0233,-0.7966,29.7786,4.5457,-36.466,-0.0003,-0.0001,-0.0019,0.0222,0.042,0.0261,-49.928,-145.2026
309,2022-05-13 20:38:06.174440,-0.3563,1.0251,-0.8,29.8077,4.7553,-36.3509,-0.0003,-0.0007,-0.0009,0.0176,0.0417,0.0285,-50.0179,-144.7347
310,2022-05-13 20:38:11.285301,-0.3476,1.0103,-0.7861,29.7606,4.852,-36.4286,0.0021,0.0002,-0.0025,0.02,0.0429,0.0283,-50.1059,-144.2638
311,2022-05-13 20:38:17.241212,-0.3455,1.0001,-0.7825,30.0456,4.9682,-36.4541,0.0033,0.0002,-0.0022,0.019,0.0432,0.0273,-50.2058,-143.713
312,2022-05-13 20:38:22.336757,-0.3483,1.0004,-0.7697,30.2001,4.8555,-36.7697,-0.0007,-0.0017,0.0006,0.0178,0.041,0.0259,-50.2891,-143.2399
313,2022-05-13 20:38:27.437911,-0.3596,0.9896,-0.7736,30.2948,5.0441,-36.1849,0.0009,0.0008,-0.0012,0.0212,0.0405,0.0261,-50.3703,-142.7645
314,2022-05-13 20:38:32.544563,-0.3655,0.9994,-0.782,30.4305,5.2635,-36.2022,0.0009,-0.0014,-0.004,0.0215,0.0415,0.0264,-50.4494,-142.2869
315,2022-05-13 20:38:37.640682,-0.3614,1.0031,-0.7823,30.5772,5.0263,-36.0646,-0.0028,0.0011,-0.0006,0.0144,0.0415,0.0293,-50.5263,-141.8088
316,2022-05-13 20:38:43.365268,-0.3554,1.0164,-0.7695,30.4184,4.922,-36.05,0.0048,0.0011,0.0033,0.0142,0.0407,0.0268,-50.6101,-141.2696
317,2022-05-13 20:38:48.461805,-0.3568,1.0161,-0.7575,30.7365,4.798,-35.7891,-0.0,0.0008,0.0003,0.0215,0.041,0.0273,-50.6824,-140.788
318,2022-05-13 20:38:53.569262,-0.3481,1.0041,-0.7536,30.64,4.9063,-35.9699,0.0012,0.0029,-0.0016,0.0215,0.0407,0.0249,-50.7526,-140.3039
319,2022-05-13 20:38:58.677638,-0.3505,1.0035,-0.769,30.4699,5.2255,-36.0689,0.0015,-0.0007,0.0009,0.0215,0.0398,0.0264,-50.8207,-139.8182
320,2022-05-13 20:39:03.775485,-0.3452,0.996,-0.7683,30.8082,5.4102,-35.5993,-0.0003,0.0017,-0.0022,0.0188,0.0407,0.0271,-50.8864,-139.3319
321,2022-05-13 20:39:09.668915,-0.3457,0.991,-0.764,31.1707,5.326,-35.7527,0.0015,-0.0007,-0.0006,0.0151,0.042,0.0249,-50.9597,-138.7682
322,2022-05-13 20:39:14.775921,-0.3423,0.9953,-0.7565,31.2961,5.3254,-35.9026,0.0003,-0.0004,0.0012,0.0146,0.0417,0.0285,-51.0208,-138.278
323,2022-05-13 20:39:19.885527,-0.3401,0.997,-0.7487,31.3216,5.615,-35.8197,0.0003,-0.0011,-0.0016,0.0144,0.0417,0.0259,-51.0796,-137.7865
324,2022-05-13 20:39:24.984861,-0.3392,0.9895,-0.7534,31.3759,5.6118,-35.6961,-0.0013,-0.0026,-0.0022,0.0163,0.042,0.0285,-51.1361,-137.2946
325,2022-05-13 20:39:30.094678,-0.3387,0.9805,-0.7564,31.537,5.6411,-35.508,0.0012,-0.0004,-0.0012,0.0154,0.0417,0.0266,-51.1905,-136.8005
326,2022-05-13 20:39:35.782419,-0.3353,0.9838,-0.7494,31.7415,5.8017,-35.4481,-0.001,0.0002,0.0006,0.019,0.0422,0.0266,-51.2483,-136.249
327,2022-05-13 20:39:40.891185,-0.3426,0.9881,-0.7459,31.8893,5.9407,-35.1153,-0.0003,0.0002,0.0012,0.0227,0.0415,0.0288,-51.2978,-135.7526
328,2022-05-13 20:39:46.000809,-0.3325,0.9975,-0.7473,31.7963,6.0833,-34.9625,0.0009,-0.0017,-0.0003,0.0212,0.0398,0.0268,-51.345,-135.255
329,2022-05-13 20:39:51.111527,-0.3368,1.0051,-0.7476,31.7782,6.1891,-35.2037,0.0027,0.0011,0.0003,0.022,0.0415,0.0264,-51.39,-134.7563
330,2022-05-13 20:39:56.215106,-0.3396,0.9963,-0.7417,32.0568,6.5164,-35.105,-0.0,0.0011,0.0003,0.0176,0.0412,0.0271,-51.4326,-134.2572
331,2022-05-13 20:40:02.113827,-0.3336,0.9752,-0.7424,32.3564,6.9462,-35.2735,-0.001,0.0023,-0.0006,0.0181,0.041,0.0261,-51.4789,-133.6789
332,2022-05-13 20:40:07.208757,-0.332,0.9748,-0.7441,32.366,6.925,-34.9906,0.0021,-0.0014,-0.0016,0.0154,0.0425,0.0256,-51.5164,-133.1789
333,2022-05-13 20:40:12.309231,-0.3226,0.9745,-0.7419,32.4269,6.6391,-35.1457,-0.0,-0.002,0.0024,0.0188,0.0422,0.0261,-51.5517,-132.6775
334,2022-05-13 20:40:17.419504,-0.3334,0.9816,-0.766,32.1556,6.8127,-35.6301,0.0015,-0.002,0.0003,0.0198,0.041,0.0249,-51.5846,-132.1741
335,2022-05-13 20:40:22.529388,-0.3397,0.9815,-0.759,32.437,6.9361,-34.9228,-0.0007,-0.0011,-0.0019,0.0168,0.0427,0.0254,-51.6153,-131.6702
336,2022-05-13 20:40:28.177736,-0.3359,0.9905,-0.7608,32.8153,6.942,-35.1643,-0.0025,0.0008,-0.0003,0.0185,0.0407,0.0283,-51.6464,-131.1122
337,2022-05-13 20:40:33.278168,-0.3383,1.0026,-0.7726,32.8882,6.6882,-35.2125,-0.0,-0.0011,0.0003,0.0207,0.0405,0.0244,-51.672,-130.6078
338,2022-05-13 20:40:38.385615,-0.337,1.0077,-0.7682,33.0077,6.6865,-34.7432,0.0006,0.0014,-0.0003,0.0215,0.041,0.0271,-51.6953,-130.1021
339,2022-05-13 20:40:43.488586,-0.3385,1.0133,-0.7766,33.2252,6.7106,-34.7134,0.0018,0.0002,-0.0022,0.0188,0.0412,0.0244,-51.7162,-129.5963
340,2022-05-13 20:40:48.595256,-0.3283,1.0215,-0.776,33.0876,6.7675,-34.1969,-0.0034,-0.0001,-0.0025,0.02,0.0407,0.0246,-51.7348,-129.0898
341,2022-05-13 20:40:54.248638,-0.3384,1.0424,-0.7925,33.3065,6.9346,-33.9127,0.0036,-0.0011,0.0012,0.0193,0.04,0.0259,-51.7526,-128.5285
342,2022-05-13 20:40:59.351991,-0.3375,1.044,-0.7759,33.5396,6.9894,-34.0393,-0.0019,-0.0029,-0.0031,0.0198,0.0405,0.0254,-51.7662,-128.0214
343,2022-05-13 20:41:04.458878,-0.3344,1.0448,-0.7759,33.9417,6.8745,-33.9475,0.0009,0.0014,-0.0006,0.0217,0.0407,0.0271,-51.7774,-127.5138
344,2022-05-13 20:41:09.558208,-0.3422,1.0503,-0.7782,33.6737,7.3074,-34.3535,-0.001,-0.0004,0.0012,0.0176,0.042,0.0242,-51.7862,-127.0066
345,2022-05-13 20:41:14.667564,-0.3395,1.0434,-0.7818,33.5063,7.3098,-33.7747,-0.0,-0.0001,0.0009,0.0193,0.0422,0.0273,-51.7927,-126.4982
346,2022-05-13 20:41:20.363177,-0.3478,1.0396,-0.7905,33.6534,7.3635,-33.4662,0.0015,0.0011,0.0009,0.0163,0.0415,0.0264,-51.797,-125.9315
347,2022-05-13 20:41:25.475475,-0.3484,1.0301,-0.776,33.8145,7.3063,-33.0965,-0.0,-0.0004,0.0021,0.0159,0.0425,0.0266,-51.7984,-125.4227
348,2022-05-13 20:41:30.582222,-0.3376,1.0333,-0.7588,34.1804,7.3811,-33.1007,-0.0022,0.0017,-0.0003,0.0171,0.0412,0.0293,-51.7975,-124.9143
349,2022-05-13 20:41:35.693664,-0.3433,1.0207,-0.7525,34.2567,7.405,-33.0925,0.0012,-0.0011,0.0006,0.0185,0.0412,0.0256,-51.7941,-124.4057
350,2022-05-13 20:41:40.800753,-0.3535,1.0285,-0.7569,34.3802,7.8062,-33.5498,-0.0,0.0002,0.0009,0.0183,0.0403,0.0273,-51.7884,-123.8975
351,2022-05-13 20:41:46.467678,-0.371,1.0269,-0.7519,34.6827,7.6211,-33.7569,0.0018,-0.0001,0.0006,0.0154,0.0429,0.0271,-51.7792,-123.3339
352,2022-05-13 20:41:51.563414,-0.3698,1.0199,-0.736,34.0355,7.5619,-33.7867,-0.0,0.0002,-0.0,0.019,0.0417,0.0271,-51.7685,-122.8273
353,2022-05-13 20:41:56.666433,-0.3645,1.0277,-0.7392,34.1875,7.4174,-33.5336,0.0018,0.0023,0.0027,0.0195,0.0417,0.0249,-51.7554,-122.3202
354,2022-05-13 20:42:01.766552,-0.3689,1.0326,-0.7399,34.5479,7.4839,-33.1532,-0.001,-0.0001,0.0015,0.0159,0.0407,0.0278,-51.7399,-121.8138
355,2022-05-13 20:42:06.862513,-0.3679,1.023,-0.7388,34.7057,7.5878,-33.474,-0.0016,-0.0011,0.0021,0.0212,0.0417,0.0271,-51.7221,-121.3082
356,2022-05-13 20:42:12.558552,-0.3675,1.0288,-0.7464,34.5339,7.6991,-32.7186,-0.0007,0.0014,0.0003,0.0207,0.0407,0.0268,-51.6994,-120.7435
357,2022-05-13 20:42:17.665613,-0.366,1.0383,-0.7503,34.4609,7.9846,-32.8709,-0.001,-0.0001,0.0006,0.022,0.0417,0.0276,-51.6765,-120.2378
358,2022-05-13 20:42:22.769256,-0.3614,1.0322,-0.7561,34.7139,7.8147,-32.7281,0.0003,0.0011,0.003,0.0161,0.0425,0.0254,-51.6513,-119.7329
359,2022-05-13 20:42:27.869546,-0.3547,1.0377,-0.7597,35.0419,7.9038,-32.7869,-0.0007,-0.0035,-0.0003,0.0139,0.0407,0.0237,-51.6238,-119.2291
360,2022-05-13 20:42:32.964167,-0.3623,1.0338,-0.7649,35.2439,8.4155,-32.721,0.0006,-0.0026,0.0003,0.0178,0.0405,0.0266,-51.5939,-118.7263
361,2022-05-13 20:42:38.613765,-0.3571,1.0437,-0.7668,35.4363,8.3438,-32.5541,-0.0,0.0005,0.0006,0.0154,0.041,0.0261,-51.5581,-118.1697
362,2022-05-13 20:42:43.721994,-0.3558,1.0483,-0.7673,35.3493,8.2445,-32.3637,0.0015,-0.0004,-0.0022,0.0156,0.0415,0.0242,-51.5232,-117.6673
363,2022-05-13 20:42:48.821052,-0.3569,1.0535,-0.763,35.3827,8.1713,-32.3803,-0.0004,0.0005,-0.0012,0.02,0.0425,0.0271,-51.4861,-117.1665
364,2022-05-13 20:42:53.931081,-0.3456,1.0528,-0.7619,35.5885,8.1911,-32.3844,-0.0,0.0011,-0.0006,0.0173,0.041,0.0271,-51.4466,-116.6655
365,2022-05-13 20:42:59.032496,-0.3361,1.0592,-0.7591,35.7183,8.4149,-31.8116,-0.0,-0.0007,-0.0003,0.0207,0.042,0.0244,-51.4048,-116.1664
366,2022-05-13 20:43:04.715556,-0.3365,1.0645,-0.7589,35.7451,8.5938,-31.6529,-0.001,-0.0004,0.0003,0.022,0.0425,0.0266,-51.3556,-115.6115
367,2022-05-13 20:43:09.823416,-0.3429,1.0634,-0.7574,35.9304,8.4362,-31.5626,-0.001,0.0008,0.0009,0.0195,0.0415,0.0285,-51.3089,-115.114
368,2022-05-13 20:43:14.925453,-0.3508,1.0603,-0.752,36.1374,8.7028,-31.5136,0.0006,-0.0001,-0.0006,0.0203,0.0412,0.0261,-51.26,-114.6178
369,2022-05-13 20:43:20.031884,-0.3496,1.0586,-0.7618,35.9984,8.3532,-31.3355,0.0009,0.0011,0.0018,0.021,0.0398,0.0276,-51.2087,-114.1223
370,2022-05-13 20:43:25.129444,-0.3562,1.0778,-0.7661,36.3362,8.9211,-31.4206,-0.001,0.0011,-0.0006,0.0156,0.042,0.0268,-51.1553,-113.629
371,2022-05-13 20:43:30.802852,-0.3489,1.0772,-0.7586,36.0604,9.0601,-31.012,-0.0,0.0002,-0.0016,0.0144,0.0425,0.0276,-51.0932,-113.0814
372,2022-05-13 20:43:35.897616,-0.3524,1.072,-0.751,36.1291,9.3388,-30.8651,0.0012,-0.0014,-0.0012,0.0205,0.0417,0.0261,-51.035,-112.5909
373,2022-05-13 20:43:41.005738,-0.3482,1.07,-0.7541,36.0464,9.2424,-30.935,-0.0007,0.0011,-0.0,0.02,0.0412,0.0261,-50.9745,-112.1005
374,2022-05-13 20:43:46.103720,-0.3403,1.0658,-0.7578,36.0647,9.4217,-30.8929,-0.0034,0.0014,0.0006,0.0212,0.0417,0.0261,-50.9118,-111.6123
375,2022-05-13 20:43:51.208775,-0.3461,1.0685,-0.7506,36.1572,9.566,-30.5284,0.0021,-0.0014,-0.0,0.0156,0.0425,0.0285,-50.8468,-111.125
376,2022-05-13 20:43:56.893917,-0.3442,1.0598,-0.7588,36.2543,9.5541,-30.1729,0.0018,-0.0011,-0.0016,0.0212,0.0398,0.0222,-50.7719,-110.5839
377,2022-05-13 20:44:01.980838,-0.3516,1.067,-0.7518,36.4867,9.4942,-30.4998,0.0009,-0.0004,-0.0,0.0129,0.0429,0.0268,-50.7025,-110.1011
378,2022-05-13 20:44:07.088038,-0.352,1.0582,-0.7456,36.3723,9.376,-30.7018,-0.0022,-0.0001,0.0009,0.0151,0.041,0.0259,-50.6307,-109.6183
379,2022-05-13 20:44:12.186504,-0.349,1.0497,-0.7397,36.3558,9.559,-29.988,-0.0013,-0.0004,-0.0022,0.0198,0.0417,0.0293,-50.5569,-109.1376
380,2022-05-13 20:44:17.296603,-0.3459,1.0528,-0.7545,36.6116,9.5389,-29.8828,0.0006,-0.0007,0.0006,0.0193,0.0403,0.0242,-50.4807,-108.6575
381,2022-05-13 20:44:23.205469,-0.3389,1.0461,-0.7438,36.9565,9.6019,-29.7783,0.003,-0.0014,-0.0,0.0154,0.042,0.0239,-50.3899,-108.1042
382,2022-05-13 20:44:28.311938,-0.3308,1.0429,-0.7368,36.9683,9.7926,-29.6593,-0.0004,0.0005,-0.0,0.0149,0.0415,0.0259,-50.3091,-107.628
383,2022-05-13 20:44:33.414230,-0.3299,1.0325,-0.7323,36.7532,9.9818,-29.2625,-0.0007,-0.0007,0.0012,0.0198,0.0412,0.0281,-50.2263,-107.1538
384,2022-05-13 20:44:38.523378,-0.3354,1.0179,-0.7263,36.9657,9.7592,-29.3282,-0.0007,-0.0023,-0.0006,0.0198,0.0407,0.0259,-50.1413,-106.6808
385,2022-05-13 20:44:43.631140,-0.338,1.0085,-0.7357,37.1008,9.6292,-29.1068,-0.0022,-0.0004,-0.0003,0.0176,0.0415,0.0264,-50.0542,-106.2096
386,2022-05-13 20:44:49.328969,-0.3384,1.0254,-0.7448,37.2308,9.8641,-28.6077,-0.0019,0.0008,0.0021,0.0224,0.0429,0.0261,-49.9545,-105.6861
387,2022-05-13 20:44:54.436704,-0.3552,1.0269,-0.7553,37.0558,9.8902,-28.8469,-0.0022,-0.0007,0.0006,0.0212,0.0405,0.0256,-49.863,-105.2187
388,2022-05-13 20:44:59.539828,-0.3463,1.021,-0.7454,37.1087,10.08,-28.95,-0.0016,-0.0004,-0.0006,0.0193,0.042,0.0281,-49.7696,-104.7537
389,2022-05-13 20:45:04.642165,-0.3431,1.025,-0.7588,37.1723,10.1065,-29.2673,-0.0034,-0.0011,-0.0006,0.0151,0.0415,0.0232,-49.6741,-104.2906
390,2022-05-13 20:45:09.741084,-0.3423,1.0359,-0.7611,37.115,10.0351,-28.8073,-0.0,-0.0017,-0.0016,0.0129,0.0403,0.0224,-49.5767,-103.8296
391,2022-05-13 20:45:15.428396,-0.3539,1.0431,-0.7467,37.251,10.019,-28.4291,-0.0007,0.0002,0.0012,0.0193,0.0403,0.0283,-49.4656,-103.3178
392,2022-05-13 20:45:20.530655,-0.3544,1.0508,-0.7561,37.2826,10.0707,-28.081,0.0015,-0.0007,-0.0006,0.0142,0.0425,0.0234,-49.3639,-102.8607
393,2022-05-13 20:45:25.632177,-0.3478,1.0523,-0.7479,37.6654,10.2987,-27.9827,0.0024,-0.0004,-0.0,0.0156,0.0415,0.0273,-49.2603,-102.4057
394,2022-05-13 20:45:30.738241,-0.3579,1.0313,-0.7336,37.7592,10.563,-27.8277,-0.0,-0.0007,-0.0006,0.0142,0.042,0.0281,-49.1545,-101.9522
395,2022-05-13 20:45:35.846951,-0.3531,1.0152,-0.7228,38.2085,10.5696,-27.9011,-0.0013,-0.0001,-0.0006,0.0142,0.0432,0.0234,-49.0468,-101.5006
396,2022-05-13 20:45:41.551003,-0.3478,0.9962,-0.7268,37.9022,10.6661,-27.8266,-0.0025,0.0005,-0.0006,0.0129,0.0417,0.0281,-48.9243,-100.9988
397,2022-05-13 20:45:46.646918,-0.3418,0.9882,-0.7139,37.8627,10.7237,-28.0908,0.0012,-0.0001,0.0006,0.0222,0.0412,0.0259,-48.8128,-100.5527
398,2022-05-13 20:45:51.752239,-0.3367,0.9857,-0.7099,37.583,10.6865,-27.8658,-0.0022,0.0017,-0.0019,0.019,0.041,0.0295,-48.6992,-100.1077
399,2022-05-13 20:45:56.863055,-0.3282,0.982,-0.6955,37.6319,10.5179,-27.6979,0.0021,0.0008,-0.0016,0.0207,0.0422,0.0264,-48.5836,-99.6644
400,2022-05-13 20:46:01.926271,-0.3306,0.9825,-0.6976,37.8569,10.4774,-26.4833,0.0009,0.002,0.0003,0.022,0.0415,0.0268,-48.4672,-99.2271
401,2022-05-13 20:46:07.804795,-0.3404,0.9691,-0.6767,38.0447,10.1918,-26.2162,-0.0007,0.0005,0.0009,0.0168,0.0425,0.0268,-48.3298,-98.7226
402,2022-05-13 20:46:12.902131,-0.3457,0.9578,-0.6679,37.6643,10.5773,-26.3394,0.0012,-0.0014,0.0009,0.0146,0.042,0.0256,-48.2088,-98.2871
403,2022-05-13 20:46:18.011883,-0.341,0.962,-0.6598,37.9964,10.7511,-26.3561,-0.0016,-0.0026,-0.0003,0.0151,0.0425,0.0237,-48.0856,-97.8528
404,2022-05-13 20:46:23.111895,-0.3457,0.9579,-0.6569,37.7659,10.8626,-26.5535,0.0027,-0.0001,0.0006,0.0188,0.0417,0.0242,-47.9608,-97.4215
405,2022-05-13 20:46:28.223028,-0.3468,0.9499,-0.6584,37.885,11.1548,-26.4186,0.0003,-0.0001,0.0015,0.0168,0.0422,0.0293,-47.834,-96.9916
406,2022-05-13 20:46:34.162610,-0.3392,0.9596,-0.6562,37.9946,11.1554,-26.0857,-0.0,0.0005,0.0021,0.0156,0.0432,0.0229,-47.6844,-96.4946
407,2022-05-13 20:46:39.262476,-0.3432,0.9686,-0.6612,38.0445,11.3638,-25.6617,-0.0007,0.0005,-0.0009,0.0146,0.0415,0.0244,-47.5541,-96.0702
408,2022-05-13 20:46:44.363960,-0.3462,0.9703,-0.6542,38.1707,11.3501,-25.4124,-0.001,-0.001,0.0021,0.0195,0.0407,0.0246,-47.422,-95.6479
409,2022-05-13 20:46:49.461205,-0.3469,0.9783,-0.6616,38.1186,11.0398,-25.108,-0.0013,0.0005,0.0006,0.021,0.0412,0.0276,-47.2883,-95.2282
410,2022-05-13 20:46:54.554838,-0.3506,0.9784,-0.6654,38.307,11.2811,-25.3958,0.0009,-0.0023,0.0021,0.0159,0.04,0.0237,-47.1531,-94.8111
411,2022-05-13 20:47:00.504379,-0.3505,0.9868,-0.6733,38.2523,11.1284,-25.3308,0.0006,0.0002,0.0009,0.0188,0.0417,0.0251,-46.9929,-94.3266
412,2022-05-13 20:47:05.600230,-0.3521,0.999,-0.6869,38.1816,11.2602,-25.0025,-0.0004,-0.0026,-0.0,0.0137,0.0425,0.0251,-46.854,-93.9142
413,2022-05-13 20:47:10.699591,-0.3566,0.9981,-0.6753,38.3494,11.4335,-25.2045,-0.001,0.0002,-0.0,0.0188,0.0415,0.0239,-46.7133,-93.5036
414,2022-05-13 20:47:15.806484,-0.3633,0.9977,-0.6758,38.3321,11.5658,-25.5979,0.0003,-0.002,0.0003,0.0163,0.0427,0.0261,-46.5708,-93.0946
415,2022-05-13 20:47:20.900885,-0.3681,0.998,-0.6766,38.5335,11.8419,-24.8191,-0.0,-0.002,0.0003,0.0156,0.0417,0.0227,-46.427,-92.6889
416,2022-05-13 20:47:26.594946,-0.3818,1.008,-0.6749,38.605,11.8215,-24.796,0.0006,-0.0023,0.0015,0.0159,0.0422,0.0246,-46.2645,-92.2381
417,2022-05-13 20:47:31.698176,-0.3818,0.9984,-0.6681,38.7065,11.6294,-24.299,-0.0004,0.0008,-0.0019,0.0151,0.0417,0.0246,-46.1171,-91.8366
418,2022-05-13 20:47:36.794922,-0.3727,0.9879,-0.6676,38.5101,12.0286,-24.2316,0.0006,0.0017,0.0003,0.02,0.042,0.0249,-45.9684,-91.4377
419,2022-05-13 20:47:41.906216,-0.3723,0.9807,-0.66,38.1464,11.89,-24.4552,-0.0004,-0.0017,0.0018,0.0222,0.0398,0.0281,-45.8176,-91.0399
420,2022-05-13 20:47:46.999740,-0.371,0.9902,-0.6587,38.2345,11.9554,-24.2921,-0.0007,-0.0007,0.0003,0.0154,0.042,0.0251,-45.6659,-90.6458
421,2022-05-13 20:47:52.902814,-0.371,0.9876,-0.6573,38.6876,12.1261,-23.6696,0.0039,-0.0023,0.0003,0.0163,0.0412,0.0273,-45.4882,-90.1918
422,2022-05-13 20:47:58.013585,-0.3663,0.9911,-0.6696,38.3256,12.0677,-23.8475,-0.0004,-0.0017,0.0015,0.0173,0.0403,0.03,-45.3328,-89.8013
423,2022-05-13 20:48:03.124073,-0.3623,1.0026,-0.6668,38.4187,12.0035,-23.4929,-0.0,-0.0001,-0.0,0.0193,0.0417,0.0229,-45.1758,-89.413
424,2022-05-13 20:48:08.352142,-0.3686,1.015,-0.6809,38.31,12.216,-23.7534,-0.0007,-0.0017,-0.0016,0.0227,0.0403,0.0249,-45.0138,-89.0181
425,2022-05-13 20:48:13.608858,-0.3721,1.0132,-0.6689,38.2568,11.9141,-23.5496,-0.0019,0.0005,-0.0006,0.0144,0.042,0.0246,-44.8493,-88.6233
426,2022-05-13 20:48:19.364756,-0.3706,1.0151,-0.6689,38.4206,11.9133,-23.3478,-0.0,0.0014,0.0018,0.0183,0.0422,0.0268,-44.6674,-88.1938
427,2022-05-13 20:48:24.648181,-0.3527,1.011,-0.6593,38.3422,12.8619,-23.1276,-0.0,-0.0001,0.0021,0.0137,0.0415,0.0246,-44.4989,-87.802
428,2022-05-13 20:48:29.759792,-0.3544,1.005,-0.6501,38.1768,12.7508,-23.2433,-0.0004,0.0005,-0.0,0.0149,0.0425,0.0254,-44.3345,-87.4253
429,2022-05-13 20:48:34.858609,-0.3526,0.9865,-0.6395,38.3686,12.4888,-22.8364,-0.0007,-0.0014,-0.0003,0.0176,0.0425,0.0249,-44.169,-87.0517
430,2022-05-13 20:48:39.970368,-0.3515,0.9908,-0.6299,38.7889,12.4871,-22.4683,-0.001,-0.0004,-0.0,0.0134,0.0417,0.0259,-44.0019,-86.6794
431,2022-05-13 20:48:45.681131,-0.3482,1.0028,-0.6351,38.617,12.2919,-22.2324,0.0009,-0.0007,0.0006,0.0163,0.0407,0.0283,-43.8135,-86.2661
432,2022-05-13 20:48:50.777268,-0.3494,0.9935,-0.6242,38.5291,12.5081,-21.986,-0.0004,-0.001,-0.0019,0.0185,0.0422,0.0271,-43.644,-85.8995
